# Please add your entries to a random position in the file.
# This is to remove conflicts with other people adding entries.

# The Format is :
# - name: Mentor's name
#   github: Mentor's Github Username
#   image: Mentor's image (or representation like a "nick" image)
#   twitter: Mentor's Twitter ID
#   facebook: Mentor's Facebook ID
#   lat: Mentor's Latitude
#   lng: Mentor's Longitude

- name: Akshat Garg
  github: akshatnitd
  image: akshatnitd.jpg
  imagewebp: akshatnitd.webp
  lat: 17.317701
  lng: 78.414230

- name: Shubham Kumar
  github: sk9331657
  image: shubham.jpg
  lat: 28.486327
  lng: 77.029137

- name: Harshit Khandelwal
  image: 27783786.jpg
  imagewebp: 27783786.webp
  github: liveHarshit
  lat: 26.892679
  lng: 76.048294

- name: Priyanshu Khandelwal
  github: Masquerade0097
  image: Priyanshu Khandelwal.jpg
  imagewebp: Priyanshu Khandelwal.webp
  lat: 31.104830
  lng: 77.173393
  
- name: tabesin
  image: tabesin.jpg
  imagewebp: tabesin.webp
  github: tabesin
  lat: 52.520008
  lng: 13.404954
  
- name: Hong Phuc Dang
  image: hpdang.jpg
  imagewebp: hpdang.webp
  github: hpdang
  lat: 1.352083
  lng: 103.819839

- name: Sanskar Jethi
  image: sanskar.jpg
  github: stealthanthrax
  lat: 28.616134
  lng: 77.200637

- name: Mohit Sharma
  image: ms.jpg
  imagewebp: ms.webp
  github: ms10398
  lat: 25.324530
  lng: 85.404419

- name: Arundhati Gupta
  image: agupta.jpg
  imagewebp: agupta.webp
  github: arundhati24
  lat: 25.594095
  lng: 85.137566

- name: Shubham Gupta
  image: ShubhamGupta.jpg
  imagewebp: ShubhamGupta.webp
  github: fragm3
  lat: 28.5575881
  lng: 77.2019425

- name: Jogendra Kumar
  image: jogendra.jpg
  imagewebp: jogendra.webp
  github: jogendra
  lat: 25.2665185
  lng: 82.984087
  
- name: Abishek V Ashok
  image: AbishekVAshok.jpg
  imagewebp: AbishekVAshok.webp
  github: abishekvashok
  lat: 9.8974123
  lng: 76.3253836

- name: Nikit Bhandari
  image: nikitbhandari.jpeg
  imagewebp: nikitbhandari.webp
  github: nikit19
  lat: 28.622463
  lng: 77.223311

- name: Rohit Potter
  image: RohitPotter.jpg
  imagewebp: RohitPotter.webp
  github: rpotter12
  lat: 30.733315
  lng: 76.779419

- name: Nicco Kunzmann
  image: Nicco Kunzmann.jpg
  imagewebp: Nicco Kunzmann.webp
  github: niccokunzmann
  lat: 52.3863
  lng: 13.0983

- name: Anshuman Verma
  image: Anshuman Verma.jpg
  imagewebp: Anshuman Verma.webp
  github: anshumanv
  lat: 20.593683
  lng: 78.962883

- name: Isuru Abeywardana
  image: isuruAb.jpg
  imagewebp: isuruAb.webp
  github: isuruAb
  lat: 6.927079
  lng: 79.861244

- name: Saurav Vishal
  image: Saurav Vishal.jpg
  imagewebp: Saurav Vishal.webp
  github: sauravvishal8797
  lat: 9.0949
  lng: 76.4896

- name: Akshat Jain
  image: rsz_akshat_jain.jpg
  github: Akshat-Jain
  lat: 25.540780
  lng: 84.851131

- name: Tarun Kumar
  image: Tarun Kumar.jpg
  imagewebp: Tarun Kumar.webp
  github: meets2tarun
  lat: 25.540956712303636
  lng: 84.85105172962317
  
- name: Prateek Chanda
  image: prateekiiest.jpg
  imagewebp: prateekiiest.webp
  github: prateekiiest
  lat: 22.572645
  lng: 88.363892

- name: Sarnava Konar
  image: Sarnava.jpg
  imagewebp: Sarnava.webp
  github: sarnava1
  lat: 22.6982
  lng: 88.3895
  
- name: Sridhar Jajoo
  image: SridharJ.jpg
  imagewebp: SridharJ.webp
  github: sridharjajoo
  lat: 28.676658
  lng: 77.203854
  
- name: Chung Wei Tat
  github: cweitat
  image: ChungWeiTat.jpg
  lat: 35.861660
  lng: 104.195396
  
- name: T Thiyagaraj
  github: tstreamDOTh
  image: T Thiyagaraj.jpg
  lat: 12.812094
  lng: 79.388951
  
- name: Rupav Jain
  github: rupav
  image: RupavJain.jpg
  lat: 20.593683
  lng: 78.962883
  
- name: Simranpreet Kaur
  github: SIMRAN1
  image: Simran.jpg
  lat: 28.669081
  lng: 77.430412
  
- name: Abhijeet Singh
  github: abhi40308
  image: AbhijeetSingh.jpg
  lat: 24.382460
  lng: 87.857620
  
- name: Suneet Srivastava
  github: codedsun
  image: SuneetSrivastava.jpg
  lat: 28.669155
  lng: 77.453758
  
- name: Anup Kumar Panwar
  github: AnupKumarPanwar
  image: AnupKumarPanwar.jpg
  lat: 25.324530
  lng: 85.404419
  
- name: Praveen Ojha
  github: praveenojha33
  image: PraveenOjha.jpg
  lat: 25.326940
  lng: 83.004324
  
- name: Chashmeet Singh
  github: chashmeetsingh
  image: ChashmeetSingh.jpg
  lat: 31.147129
  lng: 75.341217
  
- name: Mayank Vaidya
  github: mayank8318
  image: MayankVaidya.jpg
  lat: 25.594095
  lng: 85.137566
  
- name: Eden Dang
  github: 
  image: EdenDang.jpg
  lat: 25.032969
  lng: 121.565414
  
- name: André Rebentisch
  github:
  image: AndréRebentisch.jpg
  lat: 52.520008
  lng: 13.404954
  
- name: Madhushanka Padmal
  github: CloudyPadmal
  image: CloudyPadmal.jpg
  lat: 7.873054
  lng: 80.771797

- name: Abhinav Raj
  github: abinavraj23
  image: AbhinavRaj.jpg
  lat: 23.022505
  lng: 72.571365
  
- name: Harsh Patel
  github: harsh-2711
  image: HarshPatel.jpg
  lat: 23.223350
  lng: 72.647710
  
- name: Praduman Singh
  github: PrP-11
  image: PradumanSingh.jpg
  lat: 25.594095
  lng: 85.137566
  
- name: Dilpreet Singh
  github: geekyd
  image: DilpreetSingh.jpg
  lat: 12.971599
  lng: 77.594566

- name: Pranjal Paliwal
  github: betterclever
  image: PranjalPaliwal.jpg
  lat: 25.435801
  lng: 81.846313

- name: Hon Nguyen
  github: vanhonit
  image: HonNguyen.jpg
  lat: 1.352083
  lng: 103.819839
  
- name: Gi Soong Chee
  github: dhsgisc
  image: 
  lat: 1.352083
  lng: 103.819839
